[
  {
  "id": 10,
  "name": "Green Valley Ranch",
  "description": "Lightly wooded municipal park with concrete walking paths. North holes are in an open flood plain. Established September 2012.",
  "city": "Denver",
  "state": "CO",
  "location": null,
  "rating": 3.4,
  "holes": 18,
  "availability": "Year Round",
  "tees": "Gravel",
  "targets": "Mach V",
  "property": "",
  "services": "",
  "established": "2012"
  },
  {
  "id": 11,
  "name": "The Owlâ€™s Den",
  "description": "Follow concrete path down the hill from parking lot and hole 1 will be on the left. Arrows pointing to next tee pad have been installed on the baskets.",
  "city": "Thornton",
  "state": "CO",
  "location": null,
  "rating": 4,
  "holes": 9,
  "availability": "Year Round",
  "tees": "",
  "targets": "",
  "property": "Mixed Use, Public Park",
  "services": "Dogs Allowed, Cart Friendly, Restrooms Available",
  "established": "2021"
  },
  {
  "id": 12,
  "name": "Yale elementary ",
  "description": "3 basket triangle setup with multiple great locations to set up your own fun 9 or 18 hole course",
  "city": "Aurora",
  "state": "CO",
  "location": null,
  "rating": 2.6,
  "holes": 9,
  "availability": "Year Round - Evenings about 5",
  "tees": "",
  "targets": "",
  "property": "Mixed Use, School",
  "services": "Dogs Allowed, Cart Friendly, Restrooms Available, No Drinking Water Available",
  "established": "2021"
  },
  {
  "id": 13,
  "name": "Regis University",
  "description": "Holes:",
  "city": "Denver",
  "state": "CO",
  "location": null,
  "rating": 2.8,
  "holes": 0,
  "availability": "Tees:",
  "tees": "Targets:",
  "targets": "Property:",
  "property": "Services:",
  "services": "Established:",
  "established": "Main"
  },
  {
  "id": 14,
  "name": "Camenisch Park - Lower Badlands",
  "description": "Revamp of old blair witch course sharing some of its holes but adding many others with many technical holes and thick woods but also having some wide open.",
  "city": "Denver",
  "state": "CO",
  "location": null,
  "rating": 3.6,
  "holes": 18,
  "availability": "Year Round",
  "tees": "Dirt",
  "targets": "DISCatcher Pro (original)",
  "property": "",
  "services": "",
  "established": "2015"
  },
  {
  "id": 15,
  "name": "Paco Sanchez",
  "description": "Signs not labeled, some missing. Challenging course. Hole 1 under construction, tee off from sidewalk. The map/par is not up to date\n\nThis course is right next to the Sunnyside Projects. Great course. Lots of culture in the area. ",
  "city": "Denver",
  "state": "CO",
  "location": null,
  "rating": 3.5,
  "holes": 21,
  "availability": "Year Round",
  "tees": "Concrete",
  "targets": "Mach V",
  "property": "Mixed Use, Public Park",
  "services": "",
  "established": "2006"
  }
]
